[
  {
    "city": "Helsinki",
    "country_code": "FI",
    "coords": { "lat": 60.1699, "lon": 24.9384 }
  },
  {
    "city": "Berlin",
    "country_code": "DE",
    "coords": { "lat": 52.5205, "lon": 13.3921 }
  },
  {
    "city": "Paris",
    "country_code": "FR",
    "coords": { "lat": 48.8589, "lon": 2.32 }
  },
  {
    "city": "New_York",
    "country_code": "US",
    "coords": { "lat": 40.7127, "lon": -74.006 }
  },
  {
    "city": "Tokyo",
    "country_code": "JP",
    "coords": { "lat": 35.6828, "lon": 139.7595 }
  },
  {
    "city": "Los_Angeles",
    "country_code": "US",
    "coords": { "lat": 34.0522300, "lon": -118.2436800 }
  },
  {
    "city": "Sydney",
    "country_code": "AU",
    "coords": { "lat": -33.8698, "lon": 151.2083 }
  },
  {
    "city": "Cairo",
    "country_code": "EG",
    "coords": { "lat": 30.0444, "lon": 31.2357 }
  },
  {
    "city": "Cape_Town",
    "country_code": "ZA",
    "coords": { "lat": -33.929, "lon": 18.4174 }
  },
  {
    "city": "Rome",
    "country_code": "IT",
    "coords": { "lat": 41.9027, "lon": 12.4963 }
  },
  {
    "city": "Moscow",
    "country_code": "RU",
    "coords": { "lat": 55.7558, "lon": 37.6173 }
  },
  {
    "city": "Bangkok",
    "country_code": "TH",
    "coords": { "lat": 13.7563, "lon": 100.5018 }
  },
  {
    "city": "Singapore",
    "country_code": "SG",
    "coords": { "lat": 1.3521, "lon": 103.8198 }
  },
  {
    "city": "Dubai",
    "country_code": "AE",
    "coords": { "lat": 25.2048, "lon": 55.2708 }
  },
  {
    "city": "Rio_de_Janeiro",
    "country_code": "BR",
    "coords": { "lat": -22.9068, "lon": -43.1729 }
  },
  {
    "city": "Toronto",
    "country_code": "CA",
    "coords": { "lat": 43.6532, "lon": -79.3832 }
  },
  {
    "city": "Mumbai",
    "country_code": "IN",
    "coords": { "lat": 19.0760, "lon": 72.8777 }
  },
  {
    "city": "Mexico_City",
    "country_code": "MX",
    "coords": { "lat": 19.4326, "lon": -99.1332 }
  },
  {
    "city": "Nairobi",
    "country_code": "KE",
    "coords": { "lat": -1.2921, "lon": 36.8219 }
  },
  {
    "city": "Stockholm",
    "country_code": "SE",
    "coords": { "lat": 59.3293, "lon": 18.0686 }
  },
  {
    "city": "Buenos_Aires",
    "country_code": "AR",
    "coords": { "lat": -34.6037, "lon": -58.3816 }
  },
  {
    "city": "Istanbul",
    "country_code": "TR",
    "coords": { "lat": 41.0082, "lon": 28.9784 }
  },
  {
    "city": "Auckland",
    "country_code": "NZ",
    "coords": { "lat": -36.8485, "lon": 174.7633 }
  },
  {
    "city": "Seoul",
    "country_code": "KR",
    "coords": { "lat": 37.5665, "lon": 126.9780 }
  },
  {
    "city": "Vancouver",
    "country_code": "CA",
    "coords": { "lat": 49.2827, "lon": -123.1207 }
  }
]
